<?xml version="1.0" encoding="utf-8"?><root><Result /><Data><編號>1</編號><查詢類別>急救責任醫院</查詢類別><機構類別><類別名稱>醫院</類別名稱></機構類別><機構代碼>102070020</機構代碼><機構名稱>高雄市立大同醫院(委託財團法人私立高雄醫學大學附設中和紀念醫院經營)</機構名稱><行政區>前金區</行政區><地址>高雄市前金區中華三路68號</地址><電話></電話><傳真></傳真><網址></網址><電子郵件></電子郵件><服務時間></服務時間><服務內容></服務內容><其他說明></其他說明><經度Lng>120.2972463</經度Lng><緯度Lat>22.6269695</緯度Lat></Data><Data><編號>2</編號><查詢類別>急救責任醫院</查詢類別><機構類別><類別名稱>醫院</類別名稱><類別名稱>社區復健中心</類別名稱></機構類別><機構代碼>8502080022</機構代碼><機構名稱>國軍高雄總醫院附設民眾診療服務處附設社區復健中心</機構名稱><行政區>苓雅區</行政區><地址>高雄市苓雅區中正一路2號</地址><電話>(07)749-9409</電話><傳真></傳真><網址>http://802.mnd.gov.tw/</網址><電子郵件></電子郵件><服務時間></服務時間><服務內容>社區復健中心</服務內容><其他說明></其他說明><經度Lng>120.3419420</經度Lng><緯度Lat>22.6256570</緯度Lat></Data><Data><編號>3</編號><查詢類別>急救責任醫院</查詢類別><機構類別><類別名稱>醫院</類別名稱></機構類別><機構代碼>102080017</機構代碼><機構名稱>高雄市立民生醫院</機構名稱><行政區>苓雅區</行政區><地址>高雄市苓雅區凱旋二路134號</地址><電話>07 7511131</電話><傳真></傳真><網址></網址><電子郵件></電子郵件><服務時間></服務時間><服務內容></服務內容><其他說明></其他說明><經度Lng>120.3235920</經度Lng><緯度Lat>22.6266570</緯度Lat></Data><Data><編號>4</編號><查詢類別>急救責任醫院</查詢類別><機構類別><類別名稱>醫院</類別名稱></機構類別><機構代碼>902080013</機構代碼><機構名稱>阮綜合醫療社團法人阮綜合醫院</機構名稱><行政區>苓雅區</行政區><地址>高雄市苓雅區成功一路162號.四維四路136號.166號.永昌街49號.四維四路138號1-12樓</地址><電話>07-3351121</電話><傳真></傳真><網址></網址><電子郵件></電子郵件><服務時間></服務時間><服務內容></服務內容><其他說明></其他說明><經度Lng>120.3262535</經度Lng><緯度Lat>22.6268814</緯度Lat></Data><Data><編號>5</編號><查詢類別>急救責任醫院</查詢類別><機構類別><類別名稱>醫院</類別名稱></機構類別><機構代碼>1107350015</機構代碼><機構名稱>天主教聖功醫療財團法人聖功醫院</機構名稱><行政區>苓雅區</行政區><地址>高雄市苓雅區建國一路352號</地址><電話>07 2238153</電話><傳真></傳真><網址></網址><電子郵件></電子郵件><服務時間></服務時間><服務內容></服務內容><其他說明></其他說明><經度Lng>120.3239848</經度Lng><緯度Lat>22.6333516</緯度Lat></Data><Data><編號>6</編號><查詢類別>急救責任醫院</查詢類別><機構類別><類別名稱>醫院</類別名稱></機構類別><機構代碼>1502081175</機構代碼><機構名稱>邱外科醫院</機構名稱><行政區>苓雅區</行政區><地址>高雄市苓雅區成功一路137號1-6樓</地址><電話>07 3335131</電話><傳真></傳真><網址></網址><電子郵件></電子郵件><服務時間></服務時間><服務內容></服務內容><其他說明></其他說明><經度Lng>120.2975596</經度Lng><緯度Lat>22.6146087</緯度Lat></Data><Data><編號>7</編號><查詢類別>急救責任醫院</查詢類別><機構類別><類別名稱>醫院</類別名稱></機構類別><機構代碼>102020011</機構代碼><機構名稱>高雄市立聯合醫院</機構名稱><行政區>鼓山區</行政區><地址>高雄市鼓山區中華一路976號</地址><電話>07-5552565</電話><傳真></傳真><網址></網址><電子郵件></電子郵件><服務時間></服務時間><服務內容></服務內容><其他說明></其他說明><經度Lng>120.2911940</經度Lng><緯度Lat>22.6549270</緯度Lat></Data><Data><編號>8</編號><查詢類別>急救責任醫院</查詢類別><機構類別><類別名稱>醫院</類別名稱></機構類別><機構代碼></機構代碼><機構名稱>高雄市立旗津醫院(委託財團法人私立高雄醫學大學經營)</機構名稱><行政區>旗津區</行政區><地址>高雄市旗津區旗港路33號</地址><電話>07-5711188</電話><傳真></傳真><網址></網址><電子郵件></電子郵件><服務時間>週一至週五8:00-17:00</服務時間><服務內容></服務內容><其他說明></其他說明><經度Lng>120.2851625</經度Lng><緯度Lat>22.5904375</緯度Lat></Data><Data><編號>9</編號><查詢類別>急救責任醫院</查詢類別><機構類別><類別名稱>醫院</類別名稱><類別名稱>醫學中心</類別名稱></機構類別><機構代碼>1302050014</機構代碼><機構名稱>財團法人私立高雄醫學大學附設中和紀念醫院</機構名稱><行政區>三民區</行政區><地址>高雄市三民區十全一路100號</地址><電話>07 3121101</電話><傳真></傳真><網址></網址><電子郵件></電子郵件><服務時間></服務時間><服務內容></服務內容><其他說明></其他說明><經度Lng>120.3104160</經度Lng><緯度Lat>22.6477347</緯度Lat></Data><Data><編號>10</編號><查詢類別>急救責任醫院</查詢類別><機構類別><類別名稱>醫院</類別名稱></機構類別><機構代碼>1502040021</機構代碼><機構名稱>健仁醫院</機構名稱><行政區>楠梓區</行政區><地址>高雄市楠梓區楠陽路136號朝明路13０巷7弄1號1-5樓</地址><電話>07- 3517166</電話><傳真></傳真><網址></網址><電子郵件></電子郵件><服務時間></服務時間><服務內容></服務內容><其他說明></其他說明><經度Lng>120.3290911</經度Lng><緯度Lat>22.7236712</緯度Lat></Data><Data><編號>11</編號><查詢類別>急救責任醫院</查詢類別><機構類別><類別名稱>醫院</類別名稱></機構類別><機構代碼>1102110011</機構代碼><機構名稱>高雄市立小港醫院(委託財團法人私立高雄醫學大學經營)</機構名稱><行政區>小港區</行政區><地址>高雄市小港區山明里山明路四八二號B1-10樓</地址><電話>07 8036783</電話><傳真></傳真><網址></網址><電子郵件></電子郵件><服務時間></服務時間><服務內容></服務內容><其他說明></其他說明><經度Lng>120.3631010</經度Lng><緯度Lat>22.5673590</緯度Lat></Data><Data><編號>12</編號><查詢類別>急救責任醫院</查詢類別><機構類別><類別名稱>醫院</類別名稱></機構類別><機構代碼></機構代碼><機構名稱>國軍高雄總醫院左營分院</機構名稱><行政區>左營區</行政區><地址>高雄市左營區軍校路553號</地址><電話>07-5817121分機2130</電話><傳真></傳真><網址></網址><電子郵件></電子郵件><服務時間>週一至五08:30-12:00;13:3017:30
週六08:30-12:00</服務時間><服務內容></服務內容><其他說明></其他說明><經度Lng>120.2905070</經度Lng><緯度Lat>22.7012121</緯度Lat></Data><Data><編號>13</編號><查詢類別>急救責任醫院</查詢類別><機構類別><類別名稱>醫院</類別名稱><類別名稱>醫學中心</類別名稱></機構類別><機構代碼>602030026</機構代碼><機構名稱>高雄榮民總醫院</機構名稱><行政區>左營區</行政區><地址>高雄市左營區大中一路386號</地址><電話>07 3422121</電話><傳真></傳真><網址></網址><電子郵件></電子郵件><服務時間></服務時間><服務內容></服務內容><其他說明></其他說明><經度Lng>120.3223911</經度Lng><緯度Lat>22.6797767</緯度Lat></Data><Data><編號>14</編號><查詢類別>急救責任醫院</查詢類別><機構類別><類別名稱>醫院</類別名稱></機構類別><機構代碼>542020011</機構代碼><機構名稱>國軍高雄總醫院岡山分院附設民眾診療服務處</機構名稱><行政區>岡山區</行政區><地址>高雄市岡山區大義二路1號</地址><電話>07-6252281</電話><傳真></傳真><網址></網址><電子郵件></電子郵件><服務時間></服務時間><服務內容></服務內容><其他說明></其他說明><經度Lng>120.2855541</經度Lng><緯度Lat>22.7893873</緯度Lat></Data><Data><編號>15</編號><查詢類別>急救責任醫院</查詢類別><機構類別><類別名稱>醫院</類別名稱></機構類別><機構代碼>942020019</機構代碼><機構名稱>高雄市立岡山醫院（委託秀傳醫療社團法人經營）</機構名稱><行政區>岡山區</行政區><地址>高雄市岡山區壽天路12號</地址><電話>07-6222131</電話><傳真></傳真><網址></網址><電子郵件></電子郵件><服務時間></服務時間><服務內容></服務內容><其他說明></其他說明><經度Lng>120.2946285</經度Lng><緯度Lat>22.7965499</緯度Lat></Data><Data><編號>16</編號><查詢類別>急救責任醫院</查詢類別><機構類別><類別名稱>醫院</類別名稱></機構類別><機構代碼>1142120001</機構代碼><機構名稱>義大醫療財團法人義大醫院</機構名稱><行政區>燕巢區</行政區><地址>高雄市燕巢區角宿里義大路1號</地址><電話>07-6150011</電話><傳真></傳真><網址></網址><電子郵件></電子郵件><服務時間></服務時間><服務內容></服務內容><其他說明></其他說明><經度Lng>120.3583970</經度Lng><緯度Lat>22.7707970</緯度Lat></Data><Data><編號>17</編號><查詢類別>急救責任醫院</查詢類別><機構類別><類別名稱>醫院</類別名稱></機構類別><機構代碼>1107120017</機構代碼><機構名稱>義大醫療財團法人義大癌治療醫院</機構名稱><行政區>燕巢區</行政區><地址>高雄市燕巢區角宿里義大路21號</地址><電話>07-6150022</電話><傳真></傳真><網址></網址><電子郵件></電子郵件><服務時間></服務時間><服務內容></服務內容><其他說明></其他說明><經度Lng>120.3627832</經度Lng><緯度Lat>22.7644605</緯度Lat></Data><Data><編號>18</編號><查詢類別>急救責任醫院</查詢類別><機構類別><類別名稱>醫院</類別名稱></機構類別><機構代碼>1142010518</機構代碼><機構名稱>高雄市立鳳山醫院（委託長庚醫療財團法人經營）</機構名稱><行政區>鳳山區</行政區><地址>高雄市鳳山區經武路42號</地址><電話>07-7418151</電話><傳真></傳真><網址></網址><電子郵件></電子郵件><服務時間></服務時間><服務內容></服務內容><其他說明></其他說明><經度Lng>120.3631050</經度Lng><緯度Lat>22.6285095</緯度Lat></Data><Data><編號>19</編號><查詢類別>急救責任醫院</查詢類別><機構類別><類別名稱>醫院</類別名稱></機構類別><機構代碼>1542010052</機構代碼><機構名稱>大東醫院</機構名稱><行政區>鳳山區</行政區><地址>高雄市鳳山區光遠路171-2號</地址><電話>07-7463762</電話><傳真></傳真><網址></網址><電子郵件></電子郵件><服務時間></服務時間><服務內容></服務內容><其他說明></其他說明><經度Lng>120.3620570</經度Lng><緯度Lat>22.6253640</緯度Lat></Data><Data><編號>20</編號><查詢類別>急救責任醫院</查詢類別><機構類別><類別名稱>醫院</類別名稱></機構類別><機構代碼>1542011282</機構代碼><機構名稱>杏和醫院</機構名稱><行政區>鳳山區</行政區><地址>高雄市鳳山區五甲二路389號、470號1樓</地址><電話>07-7613111</電話><傳真></傳真><網址></網址><電子郵件></電子郵件><服務時間></服務時間><服務內容></服務內容><其他說明></其他說明><經度Lng>120.3356270</經度Lng><緯度Lat>22.5976730</緯度Lat></Data><Data><編號>21</編號><查詢類別>急救責任醫院</查詢類別><機構類別><類別名稱>醫院</類別名稱></機構類別><機構代碼>1542061148</機構代碼><機構名稱>瑞生醫院</機構名稱><行政區>大寮區</行政區><地址>高雄市大寮區鳳林四路192號</地址><電話>077838843</電話><傳真></傳真><網址></網址><電子郵件></電子郵件><服務時間></服務時間><服務內容></服務內容><其他說明></其他說明><經度Lng>120.3847356</經度Lng><緯度Lat>22.6176514</緯度Lat></Data><Data><編號>22</編號><查詢類別>急救責任醫院</查詢類別><機構類別><類別名稱>醫院</類別名稱></機構類別><機構代碼>1542050056</機構代碼><機構名稱>建佑醫院</機構名稱><行政區>林園區</行政區><地址>高雄市林園區東林西路358號B1-6樓、360號B1-6樓、362號B1-6樓、364巷10號B1-6樓、399號1-4樓、407巷7號1-3樓、364巷10-2號1-2樓</地址><電話>07-6437901</電話><傳真></傳真><網址></網址><電子郵件></電子郵件><服務時間></服務時間><服務內容></服務內容><其他說明></其他說明><經度Lng>120.3863061</經度Lng><緯度Lat>22.5036718</緯度Lat></Data><Data><編號>23</編號><查詢類別>急救責任醫院</查詢類別><機構類別><類別名稱>醫院</類別名稱><類別名稱>醫學中心</類別名稱></機構類別><機構代碼>1142100017</機構代碼><機構名稱>長庚醫療財團法人高雄長庚紀念醫院</機構名稱><行政區>鳥松區</行政區><地址>高雄市鳥松區大埤路123號</地址><電話>07-7317123</電話><傳真></傳真><網址></網址><電子郵件></電子郵件><服務時間></服務時間><服務內容></服務內容><其他說明></其他說明><經度Lng>120.3526317</經度Lng><緯度Lat>22.6493624</緯度Lat></Data><Data><編號>24</編號><查詢類別>急救責任醫院</查詢類別><機構類別><類別名稱>醫院</類別名稱></機構類別><機構代碼>142030019</機構代碼><機構名稱>衛生福利部旗山醫院</機構名稱><行政區>旗山區</行政區><地址>高雄市旗山區中學路6０號</地址><電話>07-6613811</電話><傳真></傳真><網址></網址><電子郵件></電子郵件><服務時間></服務時間><服務內容></服務內容><其他說明></其他說明><經度Lng>120.4832640</經度Lng><緯度Lat>22.8807955</緯度Lat></Data></root>